~Version
 VERS              .         2.0                           : CWLS LOG ASCII STANDARD - VERSION 2.0
 WRAP              .         NO                            : ONE LINE PER DEPTH STEP
 DLM               .         SPACE                         : DELIMITING CHARACTER(SPACE TAB OR COMMA)
~Well Information
#_______________________________________________________________________________
#
#PARAMETER_NAME    .UNIT     VALUE                         : DESCRIPTION
#_______________________________________________________________________________
STRT               .ft       3360                          : First reference value
STOP               .ft       3515                          : Last reference value
STEP               .ft       0.5                           : Step increment
NULL               .         -9999                         : Missing value
COMP               .                                       : Company
WELL               .         POZO-1                        : Well name
FLD                .                                       : Field
LOC                .                                       : Location
CNTY               .                                       : County
STAT               .                                       : State
CTRY               .                                       : Country
SRVC               .                                       : Service Company
DATE               .                                       : Date
API                .                                       : API number
~Parameter Information Block
#_______________________________________________________________________________
#
#PARAMETER_NAME    .UNIT     VALUE                         : DESCRIPTION
#_______________________________________________________________________________
SET                .         REGISTROS                     : 
TLFamily_CALI      .         Caliper                       : 
TLFamily_CGR       .         Gamma Ray Minus Uranium       : 
TLFamily_DEPTH     .         Measured Depth                : 
TLFamily_DPHI      .         Total Porosity                : 
TLFamily_DRHO      .         Bulk Density Correction       : 
TLFamily_LLD       .         Deep Resistivity              : 
TLFamily_NPHI      .         Neutron Porosity              : 
TLFamily_PEF       .         Photoelectric Factor          : 
TLFamily_POTA      .         Potassium Concentration       : 
TLFamily_RHOB      .         Bulk Density                  : 
TLFamily_SGR       .         Gamma Ray                     : 
TLFamily_SP        .         Spontaneous Potential         : 
TLFamily_THORIUM   .         Thorium Concentration         : 
TLFamily_URAN      .         Uranium Concentration         : 
~Curve Information
#_______________________________________________________________________________
#
#LOGNAME           .UNIT     LOG_ID                        : DESCRIPTION
#_______________________________________________________________________________
DEPTH              .ft                                     :  
CALI               .in                                     :  
CGR                .gapi                                   :  
DPHI               .v/v                                    :  
DRHO               .g/cm3                                  :  
LLD                .ohm-m                                  :  
NPHI               .v/v                                    :  
PEF                .b/elec                                 :  
POTA               .%                                      :  
RHOB               .g/c3                                   :  
SGR                .gAPI                                   :  
SP                 .mv                                     :  
THORIUM            .ppm                                    :  
URAN               .ppm                                    :  
~Ascii
# ...
3412       10.30086   51.16727   0.2059744  0.06540044 1.979813   0.3707416  3.108658   2.352686   2.310142   69.77666   -0.737433  7.809904   1.000659  
3412.5     10.26635   50.64935   0.2059744  0.07151125 1.979813   0.3658475  3.108658   2.304705   2.310142   67.18704   -0.737433  7.809904   1.198649  
3413       10.19732   49.61351   0.2076058  0.05896938 1.979813   0.3691103  3.169766   2.208743   2.307451   68.74081   -0.737433  7.809904   1.000659  
3413.5     10.16281   48.57766   0.199449   0.03449901 1.979813   0.3740043  3.169766   2.160762   2.320909   68.74081   0.5000062  8.469872   0.9016637 
3414       10.09378   47.54181   0.1978176  -0.0008470853 2.043786   0.3837925  3.169766   2.160762   2.323601   64.07951   0.2525182  9.349829   1.099654  
3414.5     9.852199   43.91636   0.1978176  0.01040315 2.043786   0.395212   3.169766   2.208743   2.323601   60.45404   0.2525182  9.129839   0.6046783 
3415       9.817687   42.36258   0.1978176  0.03179098 2.043786   0.395212   3.108658   2.400666   2.323601   61.48989   -0.2424574 6.929947   0.6046783 
3415.5     9.817687   41.84466   0.2092372  0.01956936 2.043786   0.395212   3.04755    2.640572   2.304759   65.63327   -0.9849212 7.149937   0.4066881 
3416       9.886711   44.43428   0.2092372  0.01651396 2.109826   0.3935806  2.925334   2.736533   2.304759   66.66912   -2.222361  7.809904   0.3076929 
3416.5     9.990248   45.98804   0.2010804  0.04706801 2.178      0.3919493  2.864226   2.688552   2.318217   67.70496   -1.974873  8.029893   0.5056831 
3417       9.990248   48.05974   0.199449   0.05623423 2.178      0.3886866  2.864226   2.448647   2.320909   69.25874   -0.9849212 8.909849   1.297644  
3417.5     9.990248   48.57766   0.2027117  0.05928963 2.248377   0.3837925  2.864226   2.448647   2.315526   69.25874   -0.9849212 9.349829   1.099654  
3418       10.02476   48.57766   0.2108685  0.04706801 2.321028   0.3870552  2.864226   2.496629   2.302067   67.70496   -0.8611772 10.0098    1.099654  
3418.5     10.02476   48.05974   0.2157626  0.06234504 2.248377   0.4017374  2.925334   2.54461    2.293992   66.66912   -0.737433  10.66976   1.000659  
3419       10.36988   47.02389   0.2206567  0.06234504 2.178      0.4033688  2.986442   2.496629   2.285917   67.18704   -0.737433  10.0098    1.000659  
3419.5     10.36988   47.02389   0.2304448  0.06234504 2.109826   0.4001061  3.04755    2.832495   2.269766   69.25874   -1.479896  9.569817   1.000659  
3420       10.26635   47.54181   0.2320762  0.08678827 1.917842   0.3968433  3.169766   2.928456   2.267074   69.77666   -1.727385  8.249883   1.000659  
3420.5     9.886711   49.09558   0.2239194  0.09289908 1.917842   0.3886866  3.169766   2.736533   2.280533   69.77666   -1.974873  8.249883   1.000659  
3421       9.645126   49.61351   0.2190253  0.08678827 1.917842   0.3642162  3.169766   2.59259    2.288608   67.70496   -1.727385  8.68986    1.000659  
3421.5     9.54159    51.16727   0.2157626  0.08373287 1.979813   0.3593221  3.169766   2.640572   2.293992   66.66912   -1.232408  9.349829   1.693624  
3422       9.679638   51.6852    0.2141312  0.09289908 1.979813   0.3593221  3.169766   2.784515   2.296684   69.77666   -0.9849212 9.129839   1.693624  
3422.5     9.921224   51.6852    0.2206567  0.0990099  1.979813   0.3609535  3.139212   2.832495   2.285917   69.77666   -0.9849212 9.569817   1.891615  
3423       10.33537   51.6852    0.2418643  0.08678827 2.109826   0.3674789  3.108658   2.784515   2.250924   68.74081   -0.9849212 9.569817   1.891615  
3423.5     10.88756   51.16727   0.2598093  0.07151125 2.109826   0.3707416  3.04755    2.496629   2.221315   67.70496   -1.974873  10.44977   1.99061   
3424       9.71415    50.13143   0.2532838  0.08067746 2.109826   0.3691103  2.925334   2.496629   2.232082   70.29458   -1.974873  9.349829   1.693624  
3424.5     9.334517   49.09558   0.2353389  0.09289908 2.109826   0.3576908  2.925334   2.400666   2.261691   70.29458   -1.974873  8.249883   1.79262   
3425       9.161956   48.05974   0.2320762  0.1387302  2.109826   0.3527967  2.925334   2.016819   2.267074   69.25874   -2.469848  8.469872   1.396639  
3425.5     9.092932   47.54181   0.2549152  0.0970344  2.109826   0.3642162  2.925334   2.016819   2.22939    66.66912   -3.212311  8.249883   1.396639  
3426       9.148389   47.54181   0.2810169  0.1405373  2.248377   0.3642162  2.986442   2.208743   2.186322   67.70496   -3.212311  8.469872   1.396639  
3426.5     9.217413   48.05974   0.3642162  0.0970344  2.321028   0.372373   3.04755    2.352686   2.049043   70.29458   -1.974873  8.68986    1.396639  
3427       9.389974   50.13143   0.3511653  0.1187858  2.473449   0.3805298  3.169766   2.304705   2.070577   70.8125    -1.727385  8.909849   1.198649  
3427.5     10.56339   50.64935   0.3854238  0.1106291  2.721052   0.3903179  3.353091   2.160762   2.014051   69.77666   -0.4899449 9.789806   1.594629  
3428       10.30086   50.64935   0.4050002  0.1079101  3.293097   0.3870552  3.658631   2.352686   1.98175    68.22289   0.5000062  10.22978   1.495635  
3428.5     9.645126   47.02389   0.4294705  0.1187858  3.739811   0.3805298  3.841956   2.448647   1.941374   63.56158   1.24247    10.0098    1.297644  
3429       8.768755   43.91636   0.4213137  0.0698451  4.247123   0.3642162  4.147496   2.59259    1.954832   62.00781   -0.2424574 9.349829   1.396639  
3429.5     8.768755   37.70128   0.2842796  0.01818543 5.654527   0.2761228  4.391929   2.640572   2.180938   51.64935   -5.934677  7.589915   0.8026688 
3430       8.751499   14.91267   0.3054873  0.02090436 6.025857   0.2516525  4.636361   2.448647   2.145946   38.18335   -9.152019  5.390023   0.5056831 
3430.5     8.734242   12.32305   0.3527967  0          6.22057    0.2141312  4.697469   2.256724   2.067885   29.89659   -14.59675  3.63011    0.2086978 
3431       8.665218   8.697592   0.3756357  0          6.421573   0.1880295  4.697469   1.920857   2.030201   21.60982   -16.08168  1.430218   -0.8802487
3431.5     8.665218   6.6259     0.3805298  0.01002864 6.629071   0.1651905  4.697469   1.776914   2.022126   15.39474   -17.31912  0.9902396  -0.7812535
3432       8.665218   4.554208   0.3821611  0.01274757 6.629071   0.1635591  4.697469   1.345086   2.019434   11.25136   -18.06158  0.9902396  -0.5832633
3432.5     8.644274   4.554208   0.3625848  0.01002864 6.421573   0.1651905  4.697469   1.153162   2.051735   12.28721   -20.04148  0.9902396  -0.5832633
3433       8.644274   3.518363   0.3625848  0.01002864 6.22057    0.1684532  4.697469   1.153162   2.051735   10.21552   -20.28897  1.650207   -0.7812535
3433.5     8.644274   3.518363   0.3756357  -0.006284946 6.22057    0.158665   4.697469   1.105181   2.030201   9.179669   -19.794    1.430218   -1.078239 
3434       8.609761   3.518363   0.3740043  -0.006284946 6.025857   0.1668218  4.819685   1.201143   2.032893   6.072131   -18.06158  0.3302721  -0.8802487
3434.5     8.609761   3.518363   0.3674789  0.001871845 5.654527   0.1733473  4.880794   1.297106   2.04366    6.590055   -19.29902  0.1102829  -0.7812535
3435       8.609761   3.518363   0.3413772  0.01274757 5.306079   0.1635591  4.880794   1.105181   2.086728   8.661746   -19.794    0.7702503  -0.8802487
3435.5     8.57525    3.000439   0.3413772  0.0154665  5.139992   0.1602964  4.880794   1.105181   2.086728   11.25136   -19.54651  1.210229   -1.177234 
3436       8.57525    3.000439   0.3413772  0.01274757 4.979104   0.1635591  4.880794   1.105181   2.086728   12.28721   -19.29902  1.430218   -1.177234 
3436.5     8.609761   2.482516   0.3413772  0.007309705 4.672277   0.1717159  4.880794   1.105181   2.086728   10.73344   -18.55656  1.650207   -0.7812535
3437       8.644274   2.482516   0.3495339  0.01002864 4.672277   0.17661    4.758577   1.105181   2.073269   9.179669   -19.794    0.7702503  -0.7812535
3437.5     8.699731   2.482516   0.354428   0.01274757 4.672277   0.1798727  4.636361   1.057201   2.065194   6.590055   -20.28897  0.3302721  -0.6822584
