~Version
 VERS              .         2.0                           : CWLS LOG ASCII STANDARD - VERSION 2.0
 WRAP              .         NO                            : ONE LINE PER DEPTH STEP
 DLM               .         SPACE                         : DELIMITING CHARACTER(SPACE TAB OR COMMA)
~Well Information
#_______________________________________________________________________________
#
#PARAMETER_NAME    .UNIT     VALUE                         : DESCRIPTION
#_______________________________________________________________________________
STRT               .ft       3360                          : First reference value
STOP               .ft       3515                          : Last reference value
STEP               .ft       0.5                           : Step increment
NULL               .         -9999                         : Missing value
COMP               .                                       : Company
WELL               .         POZO-1                        : Well name
FLD                .                                       : Field
LOC                .                                       : Location
CNTY               .                                       : County
STAT               .                                       : State
CTRY               .                                       : Country
SRVC               .                                       : Service Company
DATE               .                                       : Date
API                .                                       : API number
~Parameter Information Block
#_______________________________________________________________________________
#
#PARAMETER_NAME    .UNIT     VALUE                         : DESCRIPTION
#_______________________________________________________________________________
SET                .         REGISTROS                     : 
TLFamily_CALI      .         Caliper                       : 
TLFamily_CGR       .         Gamma Ray Minus Uranium       : 
TLFamily_DEPTH     .         Measured Depth                : 
TLFamily_DPHI      .         Total Porosity                : 
TLFamily_DRHO      .         Bulk Density Correction       : 
TLFamily_LLD       .         Deep Resistivity              : 
TLFamily_NPHI      .         Neutron Porosity              : 
TLFamily_PEF       .         Photoelectric Factor          : 
TLFamily_POTA      .         Potassium Concentration       : 
TLFamily_RHOB      .         Bulk Density                  : 
TLFamily_SGR       .         Gamma Ray                     : 
TLFamily_SP        .         Spontaneous Potential         : 
TLFamily_THORIUM   .         Thorium Concentration         : 
TLFamily_URAN      .         Uranium Concentration         : 
~Curve Information
#_______________________________________________________________________________
#
#LOGNAME           .UNIT     LOG_ID                        : DESCRIPTION
#_______________________________________________________________________________
DEPTH              .ft                                     :  
CALI               .in                                     :  
CGR                .gapi                                   :  
DPHI               .v/v                                    :  
DRHO               .g/cm3                                  :  
LLD                .ohm-m                                  :  
NPHI               .v/v                                    :  
PEF                .b/elec                                 :  
POTA               .%                                      :  
RHOB               .g/c3                                   :  
SGR                .gAPI                                   :  
SP                 .mv                                     :  
THORIUM            .ppm                                    :  
URAN               .ppm                                    :  
~Ascii
# ...
3490       8.57525    1.446671   0.2891737  0.008669171 1.799659   0.3234322  4.514145   0.6253717  2.172863   8.661746   -22.76385  0.9902396  -1.078239 
3490.5     8.609761   1.446671   0.2956991  0.007309705 1.116917   0.3218009  4.391929   0.9132578  2.162097   9.179669   -23.7538   0.9902396  -1.078239 
3491       8.803267   1.446671   0.3005932  0.004590775 0.8660258  0.30875    4.269712   0.8652771  2.154021   9.179669   -24.99124  0.9902396  -0.9792438
3491.5     8.803267   1.446671   0.3136441  0.004590775 0.8940095  0.3054873  4.269712   0.8172958  2.132487   9.179669   -25.73371  0.7702503  -0.9792438
3492       8.803267   1.446671   0.3185382  0.007309705 0.8660258  0.3038559  4.330821   0.673353   2.124412   8.143823   -25.73371  0.7702503  -0.9792438
3492.5     8.803267   0.9287477  0.3169068  0.0154665  0.8389181  0.3038559  4.391929   0.6253717  2.127104   7.107977   -25.73371  0.7702503  -0.9792438
3493       8.768755   0.9287477  0.3120127  0.0154665  0.8126588  0.3071187  4.453037   0.6253717  2.135179   6.072131   -24.99124  0.7702503  -0.7812535
3493.5     8.768755   0.9287477  0.3103814  0.0154665  0.8126588  0.30875    4.575253   0.5294101  2.137871   5.554208   -24.74375  0.7702503  -0.7812535
3494       8.768755   0.9287477  0.3103814  0.01274757 0.8126588  0.30875    4.575253   0.3854668  2.137871   5.036285   -24.74375  0.7702503  -0.7812535
3494.5     8.699731   1.964593   0.3136441  0.01274757 0.8126588  0.3054873  4.575253   0.3854668  2.132487   4.518363   -25.23873  1.210229   -0.7812535
3495       8.630706   2.482516   0.3152754  -0.0008470853 0.7625805  0.3038559  4.575253   0.337487   2.129796   4.000439   -26.22868  1.210229   -0.7812535
3495.5     8.596194   1.964593   0.3103814  -0.009003876 0.7625805  0.3038559  4.575253   0.337487   2.137871   4.000439   -26.72366  1.210229   -0.7812535
3496       8.596194   1.964593   0.30875    -0.009003876 0.7625805  0.30875    4.697469   0.4814293  2.140563   4.000439   -26.97114  1.430218   -1.474219 
3496.5     8.596194   0.669786   0.3120127  -0.009003876 0.8389181  0.3103814  4.819685   0.4814293  2.135179   4.000439   -26.72366  0.7702503  -1.67221  
3497       8.630706   0.9287477  0.3120127  -0.006284946 0.8389181  0.3136441  4.880794   0.5773914  2.135179   3.482516   -25.98119  1.430218   -1.67221  
3497.5     8.665218   0.9287477  0.3120127  -0.0008470853 0.8389181  0.3054873  4.880794   0.673353   2.135179   3.482516   -25.73371  1.650207   -1.375224 
3498       8.665218   1.964593   0.30875    -0.0008470853 0.8126588  0.3022246  4.880794   1.057201   2.140563   5.036285   -25.73371  1.430218   -1.028741 
3498.5     8.734242   1.964593   0.3071187  0.01002864 0.7625805  0.3005932  4.758577   1.057201   2.143254   6.590055   -26.72366  1.210229   -0.9792438
3499       8.734242   1.964593   0.3120127  0.01002864 0.6931893  0.3005932  4.636361   1.057201   2.135179   7.6259     -26.22868  1.210229   -0.9792438
3499.5     8.734242   1.446671   0.3169068  0.004590775 0.6931893  0.30875    4.575253   1.009219   2.127104   8.661746   -26.22868  2.090185   -0.9792438
3500       8.734242   0.4108245  0.3283263  0.004590775 0.7155882  0.3120127  4.453037   0.8172958  2.108262   8.661746   -26.22868  1.430218   -1.67221  
3500.5     8.734242   0.9287477  0.3332204  0.004590775 0.7155882  0.30875    4.453037   0.8172958  2.100186   8.661746   -26.22868  1.210229   -1.771205 
3501       8.734242   1.964593   0.3218009  -0.01444174 0.7155882  0.30875    4.453037   0.7213342  2.119029   8.661746   -26.22868  0.5502613  -1.771205 
3501.5     8.734242   1.964593   0.3120127  -0.01444174 0.7155882  0.3054873  4.391929   0.5773914  2.135179   9.697592   -26.22868  1.210229   -1.771205 
3502       8.734242   1.964593   0.3103814  -0.01444174 0.7387108  0.3054873  4.391929   0.6253717  2.137871   9.697592   -26.47617  0.9902396  -1.573214 
3502.5     8.699731   1.964593   0.2989618  -0.009003876 0.7387108  0.3054873  4.269712   0.6253717  2.156713   9.179669   -26.47617  0.9902396  -1.573214 
3503       8.699731   1.964593   0.2940678  -0.009003876 0.7387108  0.3169068  4.208604   0.6253717  2.164788   7.6259     -25.73371  0.9902396  -1.078239 
3503.5     8.699731   1.964593   0.2940678  -0.0008470853 0.7387108  0.3152754  4.453037   0.673353   2.164788   8.143823   -25.23873  1.430218   -1.078239 
3504       8.665218   1.964593   0.2956991  0.004590775 0.7387108  0.3120127  4.453037   0.673353   2.162097   9.179669   -24.99124  1.430218   -1.276229 
3504.5     8.596194   1.964593   0.2973305  0.007309705 0.7387108  0.3234322  4.514145   0.9132578  2.159405   10.21552   -24.74375  0.7702503  -1.67221  
3505       8.596194   1.964593   0.2989618  0.001871845 0.7155882  0.3348517  4.514145   0.8652771  2.156713   7.6259     -24.49627  0.5502613  -1.67221  
3505.5     8.540737   4.554208   0.3103814  -0.0008470853 0.7155882  0.3218009  4.514145   0.8172958  2.137871   8.661746   -25.23873  0.3302721  -1.375224 
3506       8.540737   7.661746   0.2924364  -0.0008470853 0.7387108  0.3038559  4.514145   0.7213342  2.16748    11.25136   -24.24878  0.1102829  -1.375224 
3506.5     8.52717    7.661746   0.2908051  -0.0008470853 0.7387108  0.3038559  4.514145   0.5294101  2.170172   11.76928   -24.24878  0.1102829  -1.375224 
3507       8.52717    11.80513   0.3038559  -0.0008470853 0.7872216  0.3038559  4.514145   0.417454   2.148638   14.87682   -23.7538   0.1102829  -1.375224 
3507.5     8.561682   16.46644   0.3071187  -0.0008470853 0.9228973  0.3152754  4.514145   0.4014609  2.143254   30.41451   -23.01134  0.1102829  -1.474219 
3508       8.596194   26.8249    0.2924364  -0.0008470853 1.153008   0.3218009  4.208604   0.3854668  2.16748    36.62959   -22.76385  1.210229   -1.474219 
3508.5     8.803267   42.36258   0.2793856  -0.0008470853 1.309415   0.3283263  3.841956   0.3854668  2.189014   56.31066   -21.27892  1.430218   -1.276229 
3509       9.01034    46.50597   0.2695974  -0.006284946 1.635899   0.3479026  3.719739   0.4814293  2.205164   65.63327   -0.4899449 2.530164   -1.177234 
3509.5     9.113876   49.09558   0.2581779  -0.009003876 1.857811   0.4066315  3.536415   0.5294101  2.224006   66.66912   0.005030632 3.190131   -0.9792438
3510       9.217413   51.6852    0.2614406  0.001871845 1.917842   0.4147883  3.169766   0.8172958  2.218623   67.70496   0.7474937  5.610012   -0.5832633
3510.5     9.286437   53.75689   0.263072   0.007309705 1.917842   0.4229451  2.925334   0.8172958  2.215931   68.22289   -0.9849212 5.610012   -0.4842681
3511       9.389974   54.79274   0.2598093  0.01274757 1.917842   0.4196824  2.925334   1.201143   2.221315   68.22289   -0.737433  5.170034   -0.4842681
3511.5     9.389974   55.31066   0.2304448  0.01274757 1.917842   0.4164197  2.925334   1.297106   2.269766   67.70496   -0.4899449 5.170034   -0.4842681
3512       9.286437   53.75689   0.2239194  0.01274757 1.857811   0.4017374  2.925334   1.345086   2.280533   65.11535   -0.4899449 4.950045   -0.4842681
3512.5     9.217413   52.72104   0.2255507  0.01274757 1.857811   0.395212   2.925334   1.393067   2.277841   65.11535   1.24247    4.510067   -0.2862779
3513       9.217413   52.72104   0.2320762  0.01002864 1.857811   0.3837925  3.04755    1.345086   2.267074   66.15119   1.737445   4.510067   -0.08828758
3513.5     9.251925   52.72104   0.2304448  -0.0008470853 1.799659   0.3854238  3.04755    1.249125   2.269766   67.18704   1.984933   5.170034   -0.08828758
3514       9.251925   53.75689   0.2206567  -0.0008470853 1.799659   0.3984747  3.04755    1.201143   2.285917   66.15119   2.108677   5.390023   -0.385273 
3514.5     9.32095    54.27481   0.2092372  0.001871845 1.743327   0.3984747  3          1.201143   2.304759   65.63327   2.232421   4.950045   -0.7812535
3515       9.217413   53.23897   0.2092372  0          1.743327   0.4001061  3          1.257112   2.304759   65.11535   2.232421   4.950045   -0.5832633
