~Version
 VERS              .         2.0                           : CWLS LOG ASCII STANDARD - VERSION 2.0
 WRAP              .         NO                            : ONE LINE PER DEPTH STEP
 DLM               .         SPACE                         : DELIMITING CHARACTER(SPACE TAB OR COMMA)
~Well Information
#_______________________________________________________________________________
#
#PARAMETER_NAME    .UNIT     VALUE                         : DESCRIPTION
#_______________________________________________________________________________
STRT               .ft       3360                          : First reference value
STOP               .ft       3515                          : Last reference value
STEP               .ft       0.5                           : Step increment
NULL               .         -9999                         : Missing value
COMP               .                                       : Company
WELL               .         POZO-1                        : Well name
FLD                .                                       : Field
LOC                .                                       : Location
CNTY               .                                       : County
STAT               .                                       : State
CTRY               .                                       : Country
SRVC               .                                       : Service Company
DATE               .                                       : Date
API                .                                       : API number
~Parameter Information Block
#_______________________________________________________________________________
#
#PARAMETER_NAME    .UNIT     VALUE                         : DESCRIPTION
#_______________________________________________________________________________
SET                .         REGISTROS                     : 
TLFamily_CALI      .         Caliper                       : 
TLFamily_CGR       .         Gamma Ray Minus Uranium       : 
TLFamily_DEPTH     .         Measured Depth                : 
TLFamily_DPHI      .         Total Porosity                : 
TLFamily_DRHO      .         Bulk Density Correction       : 
TLFamily_LLD       .         Deep Resistivity              : 
TLFamily_NPHI      .         Neutron Porosity              : 
TLFamily_PEF       .         Photoelectric Factor          : 
TLFamily_POTA      .         Potassium Concentration       : 
TLFamily_RHOB      .         Bulk Density                  : 
TLFamily_SGR       .         Gamma Ray                     : 
TLFamily_SP        .         Spontaneous Potential         : 
TLFamily_THORIUM   .         Thorium Concentration         : 
TLFamily_URAN      .         Uranium Concentration         : 
~Curve Information
#_______________________________________________________________________________
#
#LOGNAME           .UNIT     LOG_ID                        : DESCRIPTION
#_______________________________________________________________________________
DEPTH              .ft                                     :  
CALI               .in                                     :  
CGR                .gapi                                   :  
DPHI               .v/v                                    :  
DRHO               .g/cm3                                  :  
LLD                .ohm-m                                  :  
NPHI               .v/v                                    :  
PEF                .b/elec                                 :  
POTA               .%                                      :  
RHOB               .g/c3                                   :  
SGR                .gAPI                                   :  
SP                 .mv                                     :  
THORIUM            .ppm                                    :  
URAN               .ppm                                    :  
~Ascii
# ...
3438       8.665218   1.446671   0.3462712  0.0154665  4.672277   0.1847668  4.636361   1.057201   2.078652   6.590055   -20.28897  1.650207   -0.385273 
3438.5     8.665218   1.964593   0.3430085  0.01002864 4.672277   0.1863981  4.636361   1.441048   2.084036   7.6259     -18.80405  1.430218   -0.385273 
3439       8.665218   2.482516   0.3430085  0.001871845 4.526029   0.1798727  4.636361   1.489029   2.084036   8.661746   -18.80405  1.430218   -0.9792438
3439.5     8.699731   3.000439   0.3609535  0.001871845 4.384359   0.1733473  4.636361   1.297106   2.054427   9.179669   -20.28897  0.7702503  -1.177234 
3440       8.734242   5.072131   0.3609535  0.01002864 4.384359   0.1668218  4.636361   1.105181   2.054427   9.179669   -20.78395  1.430218   -0.9792438
3440.5     8.734242   5.590055   0.3788984  0.01002864 4.384359   0.1668218  4.697469   1.297106   2.024818   8.143823   -20.78395  1.430218   -0.8802487
3441       8.768755   4.036285   0.372373   0.01274757 4.526029   0.1700846  4.697469   1.297106   2.035585   6.590055   -20.53646  1.430218   -0.8802487
3441.5     8.713298   3.518363   0.3430085  0.001871845 4.526029   0.1880295  4.819685   1.201143   2.084036   7.6259     -20.04148  2.530164   -0.9792438
3442       8.644274   1.964593   0.3413772  0.001871845 4.526029   0.1945549  4.819685   1.201143   2.086728   8.661746   -19.54651  2.090185   -1.474219 
3442.5     8.644274   1.964593   0.3462712  0.001871845 4.526029   0.2010804  4.819685   1.393067   2.078652   9.697592   -18.55656  1.870196   -0.9792438
3443       8.57525    1.964593   0.3642162  0.007309705 4.526029   0.1912922  4.819685   1.441048   2.049043   10.21552   -18.55656  1.650207   -0.5832633
3443.5     8.57525    2.482516   0.3576908  0.0154665  4.526029   0.1798727  4.758577   1.441048   2.05981    12.28721   -19.29902  1.650207   0.01070751
3444       8.57525    4.036285   0.3593221  0.0154665  4.526029   0.1896608  4.697469   1.393067   2.057118   13.84098   -19.794    1.650207   0.2086978 
3444.5     8.57525    4.036285   0.3348517  0.01274757 4.526029   0.2108685  4.575253   1.297106   2.097495   17.98436   -19.794    1.870196   -0.2862779
3445       8.609761   5.072131   0.3250636  0.01274757 4.672277   0.2483898  4.453037   1.153162   2.113645   18.50228   -19.794    1.650207   0.4066881 
3445.5     8.609761   6.107977   0.3185382  0.01274757 4.823251   0.2777542  4.391929   1.105181   2.124412   24.71736   -19.794    0.9902396  0.8026688 
3446       8.561682   6.6259     0.3038559  0.01274757 4.384359   0.2973305  4.330821   1.105181   2.148638   25.7532    -19.29902  0.1102829  0.9016637 
3446.5     8.561682   4.554208   0.3071187  0.01818543 4.24927    0.3022246  4.208604   1.201143   2.143254   23.16359   -18.30907  0.5502613  1.495635  
3447       8.561682   5.590055   0.3038559  0.01818543 4.114182   0.3283263  3.964172   1.249125   2.148638   18.50228   -17.81409  1.430218   1.495635  
3447.5     8.561682   6.6259     0.3038559  0.01274757 3.739811   0.3413772  3.964172   1.345086   2.148638   37.66543   -20.53646  0.7702503  1.396639  
3448       8.52717    6.6259     0.3054873  0.004590775 3.511128   0.3397458  3.780848   1.297106   2.145946   36.62959   -21.52641  1.430218   1.693624  
3448.5     8.52717    5.590055   0.3054873  0.004590775 3.399506   0.3266949  3.658631   1.201143   2.145946   20.05605   -22.76385  1.650207   2.089605  
3449       8.596194   4.554208   0.3185382  0.007309705 3.293097   0.3234322  3.414199   1.057201   2.124412   17.98436   -21.7739   1.870196   1.693624  
3449.5     8.596194   3.518363   0.2940678  0.02090436 3.190019   0.3283263  3.414199   1.057201   2.164788   20.57397   -20.28897  1.870196   1.297644  
3450       8.596194   3.518363   0.285911   0.02634222 3.190019   0.3527967  3.108658   0.9132578  2.178247   46.47012   -20.28897  2.310175   0.3076929 
3450.5     8.596194   2.482516   0.2940678  0.02634222 3.293097   0.372373   3.108658   0.9612386  2.164788   44.39843   -20.78395  1.650207   2.782571  
3451       8.630706   1.964593   0.2973305  0.02090436 3.293097   0.3968433  3.108658   0.9612386  2.159405   40.25505   -20.53646  1.870196   3.376542  
3451.5     8.630706   1.964593   0.2940678  0.007309705 3.293097   0.4050002  3.169766   0.9132578  2.164788   57.3465    -20.53646  1.870196   2.980561  
3452       8.665218   1.964593   0.2728601  0.007309705 3.293097   0.3984747  3.353091   0.7693145  2.199781   65.63327   -20.53646  1.870196   4.069509  
3452.5     8.665218   4.036285   0.2744915  0.004590775 3.293097   0.3968433  3.414199   0.6253717  2.197089   66.15119   -20.53646  1.210229   4.960464  
3453       8.665218   5.072131   0.2826483  0.004590775 3.293097   0.3935806  3.414199   0.9612386  2.18363    62.52573   -20.53646  0.9902396  4.663479  
3453.5     8.734242   6.107977   0.2810169  0.01002864 3.293097   0.395212   3.414199   1.009219   2.186322   58.38235   -20.53646  0.9902396  3.970513  
3454       8.699731   6.6259     0.2679661  0.0154665  3.293097   0.395212   3.291983   1.057201   2.207856   57.86443   -20.28897  1.430218   4.267498  
3454.5     8.699731   7.661746   0.2581779  0.01002864 3.293097   0.395212   3.169766   1.153162   2.224006   62.52573   -18.30907  1.650207   5.05946   
3455       8.699731   7.143823   0.263072   0          3.293097   0.3919493  3.169766   1.105181   2.215931   61.48989   -18.55656  1.650207   5.25745   
3455.5     8.699731   6.107977   0.2744915  0          3.293097   0.3886866  3.108658   1.105181   2.197089   58.38235   -18.80405  1.650207   5.25745   
3456       8.768755   5.590055   0.2826483  0          3.293097   0.3903179  3.169766   1.057201   2.18363    56.82858   -18.80405  2.310175   4.663479  
3456.5     8.768755   5.072131   0.2712288  0          3.090167   0.4147883  3.169766   1.201143   2.202472   51.13143   -19.794    2.090185   4.069509  
3457       8.734242   5.072131   0.2598093  0          2.899742   0.4098942  3.169766   1.249125   2.221315   44.39843   -20.53646  2.310175   3.673528  
3457.5     8.734242   4.554208   0.2516525  0.01274757 2.899742   0.3968433  3.169766   1.153162   2.234773   44.39843   -21.89764  1.870196   2.980561  
3458       8.734242   3.518363   0.2549152  0.01274757 2.899742   0.3837925  3.108658   1.105181   2.22939    47.50597   -22.51636  2.090185   3.277547  
3458.5     8.734242   2.482516   0.2712288  0.01274757 2.899742   0.3837925  3.04755    0.9132578  2.202472   55.79274   -22.02139  1.870196   4.267498  
3459       8.734242   2.482516   0.2761228  0.01274757 2.899742   0.4033688  3.123935   0.7693145  2.194397   62.52573   -21.27892  2.310175   4.564484  
3459.5     8.699731   2.482516   0.2777542  0.007309705 2.899742   0.4082628  3.20032    0.7693145  2.191706   66.66912   -19.794    1.650207   5.05946   
3460       8.665218   2.482516   0.2679661  0.007309705 2.993441   0.4115256  3.276706   0.7693145  2.207856   66.66912   -19.54651  0.3302721  5.05946   
3460.5     8.630706   3.000439   0.2581779  0.007309705 2.993441   0.395212   3.353091   0.9132578  2.224006   62.00781   -20.04148  1.650207   5.05946   
3461       8.630706   4.554208   0.2532838  0.007309705 3.190019   0.3968433  3.291983   0.9612386  2.232082   58.38235   -21.27892  1.650207   4.960464  
3461.5     8.665218   5.072131   0.2695974  0.01002864 3.190019   0.4001061  3.353091   0.8652771  2.205164   57.86443   -21.27892  2.090185   4.267498  
3462       8.734242   4.554208   0.2777542  0.01002864 3.293097   0.4115256  3.353091   0.673353   2.191706   59.93612   -21.27892  2.530164   4.960464  
3462.5     8.734242   4.554208   0.2728601  0.01274757 3.293097   0.4115256  3.353091   0.7453249  2.199781   58.90027   -21.03144  2.090185   5.158454  
3463       8.734242   4.554208   0.2695974  0.01818543 3.293097   0.3984747  3.169766   0.8172958  2.205164   51.13143   -20.53646  1.210229   5.158454  
3463.5     8.768755   4.554208   0.2614406  0.01002864 3.090167   0.3968433  3.169766   0.8652771  2.218623   50.61351   -20.04148  1.650207   4.465489  
