~Version
 VERS              .         2.0                           : CWLS LOG ASCII STANDARD - VERSION 2.0
 WRAP              .         NO                            : ONE LINE PER DEPTH STEP
 DLM               .         SPACE                         : DELIMITING CHARACTER(SPACE TAB OR COMMA)
~Well Information
#_______________________________________________________________________________
#
#PARAMETER_NAME    .UNIT     VALUE                         : DESCRIPTION
#_______________________________________________________________________________
STRT               .ft       3360                          : First reference value
STOP               .ft       3515                          : Last reference value
STEP               .ft       0.5                           : Step increment
NULL               .         -9999                         : Missing value
COMP               .                                       : Company
WELL               .         POZO-1                        : Well name
FLD                .                                       : Field
LOC                .                                       : Location
CNTY               .                                       : County
STAT               .                                       : State
CTRY               .                                       : Country
SRVC               .                                       : Service Company
DATE               .                                       : Date
API                .                                       : API number
~Parameter Information Block
#_______________________________________________________________________________
#
#PARAMETER_NAME    .UNIT     VALUE                         : DESCRIPTION
#_______________________________________________________________________________
SET                .         REGISTROS                     : 
TLFamily_CALI      .         Caliper                       : 
TLFamily_CGR       .         Gamma Ray Minus Uranium       : 
TLFamily_DEPTH     .         Measured Depth                : 
TLFamily_DPHI      .         Total Porosity                : 
TLFamily_DRHO      .         Bulk Density Correction       : 
TLFamily_LLD       .         Deep Resistivity              : 
TLFamily_NPHI      .         Neutron Porosity              : 
TLFamily_PEF       .         Photoelectric Factor          : 
TLFamily_POTA      .         Potassium Concentration       : 
TLFamily_RHOB      .         Bulk Density                  : 
TLFamily_SGR       .         Gamma Ray                     : 
TLFamily_SP        .         Spontaneous Potential         : 
TLFamily_THORIUM   .         Thorium Concentration         : 
TLFamily_URAN      .         Uranium Concentration         : 
~Curve Information
#_______________________________________________________________________________
#
#LOGNAME           .UNIT     LOG_ID                        : DESCRIPTION
#_______________________________________________________________________________
DEPTH              .ft                                     :  
CALI               .in                                     :  
CGR                .gapi                                   :  
DPHI               .v/v                                    :  
DRHO               .g/cm3                                  :  
LLD                .ohm-m                                  :  
NPHI               .v/v                                    :  
PEF                .b/elec                                 :  
POTA               .%                                      :  
RHOB               .g/c3                                   :  
SGR                .gAPI                                   :  
SP                 .mv                                     :  
THORIUM            .ppm                                    :  
URAN               .ppm                                    :  
~Ascii
# ...
3464       8.768755   3.000439   0.2581779  0.001871845 2.993441   0.4017374  3.169766   0.7693145  2.224006   53.72104   -19.05153  1.650207   3.673528  
3464.5     8.768755   2.482516   0.263072   -0.0008470854 3.399506   0.395212   3.169766   0.7213342  2.215931   57.3465    -19.05153  1.650207   3.871518  
3465       8.768755   2.482516   0.2695974  -0.0008470853 3.293097   0.4050002  3.169766   0.8652771  2.205164   60.45404   -19.05153  1.430218   4.663479  
3465.5     8.699731   2.482516   0.2695974  0.01274757 3.293097   0.4001061  3.169766   0.9132578  2.205164   58.90027   -19.05153  1.430218   5.05946   
3466       8.665218   2.482516   0.2663347  0.01002864 3.190019   0.3788984  3.414199   0.8172958  2.210548   54.75689   -19.794    1.430218   5.158454  
3466.5     8.665218   2.482516   0.2663347  0          2.993441   0.3625848  3.414199   0.7693145  2.210548   55.27481   -21.27892  1.430218   4.861469  
3467       8.665218   2.482516   0.2728601  0          2.993441   0.3707416  3.536415   0.8172958  2.199781   60.97197   -21.03144  2.090185   4.168503  
3467.5     8.665218   3.000439   0.2826483  0          2.808977   0.3968433  3.658631   0.8172958  2.18363    67.70496   -20.53646  1.430218   3.871518  
3468       8.665218   4.036285   0.2810169  0          2.721052   0.4001061  3.841956   0.6253717  2.186322   66.15119   -20.28897  1.210229   4.960464  
3468.5     8.699731   4.554208   0.2744915  0          2.721052   0.4001061  3.964172   0.6253717  2.197089   66.15119   -19.05153  1.210229   6.04941   
3469       8.699731   4.554208   0.263072   0          2.721052   0.3870552  4.086388   0.7213342  2.215931   40.77297   -19.05153  1.870196   6.04941   
3469.5     8.768755   4.554208   0.263072   0          2.721052   0.3642162  4.208604   0.9132578  2.215931   25.7532    -19.05153  2.090185   4.861469  
3470       8.734242   4.036285   0.2647033  0.004590775 2.721052   0.3740043  4.269712   1.057201   2.213239   14.3589    -19.794    1.430218   4.861469  
3470.5     8.699731   2.482516   0.2793856  0.004590775 2.808977   0.372373   4.391929   1.105181   2.189014   21.0919    -20.28897  1.430218   1.198649  
3471       8.699731   0.4108245  0.2940678  0.001871845 2.993441   0.3658475  4.544699   1.009219   2.164788   31.45036   -20.78395  1.650207   1.594629  
3471.5     8.699731   0.4108245  0.2908051  -0.003566016 3.090167   0.3609535  4.636361   0.9612386  2.170172   45.43428   -20.53646  1.650207   3.178552  
3472       8.609761   0.4108245  0.2891737  -0.009003876 3.190019   0.354428   4.697469   0.8652771  2.172863   43.88051   -20.28897  1.210229   3.574532  
3472.5     8.609761   0.9287477  0.2891737  -0.009003876 3.293097   0.3381144  4.758577   0.8172958  2.172863   21.0919    -20.04148  2.090185   0.8026688 
3473       8.609761   0.9287477  0.2924364  -0.006284946 3.509353   0.3283263  4.636361   0.7213342  2.16748    7.6259     -18.80405  2.090185   0.7036735 
3473.5     8.609761   0.9287477  0.2973305  -0.006284946 3.509353   0.3250636  4.697469   0.673353   2.159405   11.25136   -18.06158  2.090185   -0.4842681
3474       8.699731   1.964593   0.2956991  0.007309705 3.739811   0.3234322  4.758577   0.673353   2.162097   19.0202    -18.06158  1.430218   0.1097027 
3474.5     8.734242   3.000439   0.2956991  0.01002864 3.739811   0.3201695  4.758577   0.673353   2.162097   25.7532    -18.06158  0.5502613  0.3076929 
3475       8.734242   3.000439   0.2989618  0.01002864 3.739811   0.3152754  4.758577   0.673353   2.156713   25.7532    -18.06158  0.3302721  0.3076929 
3475.5     8.734242   1.964593   0.3022246  0.007309705 3.739811   0.3022246  4.636361   0.7693145  2.15133    23.16359   -18.06158  1.650207   0.01070751
3476       8.699731   3.000439   0.3071187  0.007309705 3.739811   0.3005932  4.575253   0.8652771  2.143254   14.87682   -18.06158  0.7702503  -0.385273 
3476.5     8.699731   3.000439   0.3071187  0.007309705 3.739811   0.2940678  4.575253   0.8172958  2.143254   7.6259     -18.80405  0.7702503  -1.078239 
3477       8.768755   3.000439   0.3038559  0.01002864 3.860654   0.2940678  4.514145   0.6253717  2.148638   6.590055   -19.29902  0.5502613  -0.8802487
3477.5     8.803267   2.482516   0.2989618  0.0154665  3.860654   0.2956991  4.514145   0.5773914  2.156713   10.21552   -20.04148  0.5502613  -0.1872828
3478       8.803267   1.964593   0.2989618  0.0154665  3.985403   0.2973305  4.575253   0.5773914  2.156713   11.76928   -20.28897  1.870196   -0.2862779
3478.5     8.768755   1.964593   0.3136441  0.0154665  3.985403   0.2989618  4.697469   0.5773914  2.132487   9.179669   -20.53646  1.430218   -0.9792438
3479       8.768755   1.964593   0.3103814  0.004590775 3.985403   0.2989618  4.697469   0.9612386  2.137871   7.6259     -20.78395  1.430218   -1.177234 
3479.5     8.768755   1.964593   0.30875    -0.009003876 3.985403   0.2989618  4.758577   1.009219   2.140563   7.107977   -21.03144  0.9902396  -1.177234 
3480       8.768755   1.964593   0.30875    -0.01172281 3.985403   0.2989618  4.880794   1.201143   2.140563   7.6259     -21.03144  0.9902396  -1.177234 
3480.5     8.734242   1.964593   0.3152754  -0.009003876 4.114182   0.2956991  4.819685   1.201143   2.129796   8.143823   -21.27892  1.650207   -0.8802487
3481       8.734242   2.482516   0.3250636  -0.006284946 4.672277   0.2940678  4.758577   1.057201   2.113645   8.661746   -21.52641  1.870196   -1.078239 
3481.5     8.734242   2.482516   0.3299577  -0.006284946 4.672277   0.2956991  4.758577   0.7693145  2.10557    8.661746   -21.52641  1.430218   -1.474219 
3482       8.609761   1.964593   0.3332204  -0.006284946 4.823251   0.2973305  4.758577   0.7213342  2.100186   7.6259     -22.02139  1.210229   -1.573214 
3482.5     8.609761   1.446671   0.3348517  -0.006284946 4.823251   0.3103814  4.758577   0.6253717  2.097495   6.072131   -22.02139  0.5502613  -1.67221  
3483       8.609761   1.446671   0.3250636  -0.009003876 4.823251   0.3103814  4.758577   0.5773914  2.113645   6.072131   -21.52641  0.7702503  -1.67221  
3483.5     8.609761   1.446671   0.3152754  -0.009003876 4.823251   0.3071187  4.636361   0.5773914  2.129796   6.072131   -21.27892  1.430218   -1.573214 
3484       8.609761   1.446671   0.3071187  -0.006284946 4.823251   0.3038559  4.514145   0.7213342  2.143254   7.6259     -21.27892  1.650207   -1.474219 
3484.5     8.609761   1.446671   0.3038559  -0.003566016 4.672277   0.3038559  4.575253   0.7213342  2.148638   8.143823   -21.7739   1.540213   -1.375224 
3485       8.609761   2.482516   0.3038559  -0.0008470853 4.526029   0.3152754  4.575253   0.7213342  2.148638   8.143823   -23.7538   1.430218   -1.276229 
3485.5     8.609761   2.482516   0.3038559  -0.0008470853 4.526029   0.3218009  4.697469   0.7213342  2.148638   7.107977   -23.7538   0.9902396  -1.078239 
3486       8.609761   1.964593   0.3005932  -0.0008470853 4.526029   0.3234322  4.697469   0.7213342  2.154021   7.107977   -23.25883  0.7702503  -1.028741 
3486.5     8.57525    1.446671   0.2956991  0.007309705 4.526029   0.3234322  4.697469   0.7213342  2.162097   7.6259     -22.02139  0.3302721  -0.9792438
3487       8.57525    0.9287477  0.2924364  0.01274757 4.526029   0.3201695  4.697469   0.673353   2.16748    7.6259     -21.27892  0.3302721  -0.9792438
3487.5     8.540737   0.9287477  0.285911   0.01274757 4.384359   0.3144598  4.697469   0.5773914  2.178247   7.6259     -23.01134  0.3302721  -1.078239 
3488       8.506225   0.9287477  0.2956991  0.01274757 4.114182   0.3120127  4.697469   0.4814293  2.162097   7.6259     -24.00129  0.3302721  -1.177234 
3488.5     8.506225   0.9287477  0.2940678  0.01274757 3.62275    0.3103814  4.636361   0.3854668  2.164788   6.072131   -23.58881  0.3302721  -1.276229 
3489       8.540737   1.446671   0.2810169  0.01274757 3.399506   0.3120127  4.636361   0.5773914  2.186322   5.554208   -23.17633  0.3302721  -1.276229 
3489.5     8.57525    1.446671   0.2810169  0.01002864 3.090167   0.3234322  4.514145   0.6253717  2.186322   6.590055   -22.76385  0.7702503  -1.177234 
