~Version
 VERS              .         2.0                           : CWLS LOG ASCII STANDARD - VERSION 2.0
 WRAP              .         NO                            : ONE LINE PER DEPTH STEP
 DLM               .         SPACE                         : DELIMITING CHARACTER(SPACE TAB OR COMMA)
~Well Information
#_______________________________________________________________________________
#
#PARAMETER_NAME    .UNIT     VALUE                         : DESCRIPTION
#_______________________________________________________________________________
STRT               .ft       3360                          : First reference value
STOP               .ft       3515                          : Last reference value
STEP               .ft       0.5                           : Step increment
NULL               .         -9999                         : Missing value
COMP               .                                       : Company
WELL               .         POZO-1                        : Well name
FLD                .                                       : Field
LOC                .                                       : Location
CNTY               .                                       : County
STAT               .                                       : State
CTRY               .                                       : Country
SRVC               .                                       : Service Company
DATE               .                                       : Date
API                .                                       : API number
~Parameter Information Block
#_______________________________________________________________________________
#
#PARAMETER_NAME    .UNIT     VALUE                         : DESCRIPTION
#_______________________________________________________________________________
SET                .         REGISTROS                     : 
TLFamily_CALI      .         Caliper                       : 
TLFamily_CGR       .         Gamma Ray Minus Uranium       : 
TLFamily_DEPTH     .         Measured Depth                : 
TLFamily_DPHI      .         Total Porosity                : 
TLFamily_DRHO      .         Bulk Density Correction       : 
TLFamily_LLD       .         Deep Resistivity              : 
TLFamily_NPHI      .         Neutron Porosity              : 
TLFamily_PEF       .         Photoelectric Factor          : 
TLFamily_POTA      .         Potassium Concentration       : 
TLFamily_RHOB      .         Bulk Density                  : 
TLFamily_SGR       .         Gamma Ray                     : 
TLFamily_SP        .         Spontaneous Potential         : 
TLFamily_THORIUM   .         Thorium Concentration         : 
TLFamily_URAN      .         Uranium Concentration         : 
~Curve Information
#_______________________________________________________________________________
#
#LOGNAME           .UNIT     LOG_ID                        : DESCRIPTION
#_______________________________________________________________________________
DEPTH              .ft                                     :  
CALI               .in                                     :  
CGR                .gapi                                   :  
DPHI               .v/v                                    :  
DRHO               .g/cm3                                  :  
LLD                .ohm-m                                  :  
NPHI               .v/v                                    :  
PEF                .b/elec                                 :  
POTA               .%                                      :  
RHOB               .g/c3                                   :  
SGR                .gAPI                                   :  
SP                 .mv                                     :  
THORIUM            .ppm                                    :  
URAN               .ppm                                    :  
~Ascii
# ...
3386       8.713298   9.733438   0.3071187  0.02090436 833.2342   0.245127   1.886496   0.9380672  2.143254   13.84098   7.677153   2.090185   -0.8802487
3386.5     8.713298   9.733438   0.3250636  0.01818543 807.1527   0.245127   1.76428    0.9380672  2.113645   13.84098   7.429665   1.870196   -0.8802487
3387       8.713298   10.25136   0.3266949  0.007309705 807.1527   0.2516525  1.642064   0.9380672  2.110953   13.84098   6.439713   2.090185   -0.4842681
3387.5     8.713298   10.25136   0.3283263  0.004590775 782.2835   0.2598093  1.580956   0.7461431  2.108262   15.91267   5.69725    2.090185   -0.08828758
3388       8.678785   9.215515   0.3266949  -0.003566016 757.4139   0.2598093  1.519848   0.6501806  2.110953   21.60982   5.573506   2.090185   -0.1872828
3388.5     8.678785   8.697592   0.3234322  -0.006284946 733.7057   0.2581779  1.580956   0.7941239  2.116337   22.64567   5.449762   2.310175   -0.1872828
3389       8.678785   8.697592   0.3152754  -0.006284946 710.7401   0.2549152  1.642064   0.5062377  2.129796   20.57397   5.449762   1.870196   -0.1872828
3389.5     8.678785   9.215515   0.30875    -0.0008470853 688.4929   0.2549152  1.642064   0.5062377  2.140563   17.46644   6.439713   2.090185   -0.5832633
3390       8.713298   9.733438   0.30875    0.01818543 688.4929   0.2467584  1.825388   0.6501806  2.140563   14.3589    7.182178   2.530164   -0.9792438
3390.5     8.713298   10.25136   0.3120127  0.02090436 688.4929   0.2467584  1.825388   0.8421047  2.135179   14.3589    7.429665   2.530164   -0.9792438
3391       8.74781    10.25136   0.3218009  0.02090436 688.4929   0.2500211  1.886496   0.7941239  2.119029   14.87682   7.429665   1.870196   -0.8802487
3391.5     8.74781    10.25136   0.3266949  0.02090436 688.4929   0.2565465  1.947604   0.8421047  2.110953   15.39474   7.429665   1.430218   -0.385273 
3392       8.74781    9.733438   0.3250636  0.0154665  666.942    0.263072   1.886496   0.9380672  2.113645   15.91267   7.182178   1.210229   -0.385273 
3392.5     8.74781    9.215515   0.3185382  0.01274757 666.942    0.263072   1.825388   0.8900855  2.124412   14.87682   7.182178   1.210229   -0.7812535
3393       8.713298   8.697592   0.3152754  0.001871845 733.7057   0.263072   1.703172   0.7461431  2.129796   11.76928   7.677153   1.870196   -0.6822584
3393.5     8.713298   8.697592   0.3136441  -0.003566016 700.324    0.2598093  1.703172   0.7461431  2.132487   11.76928   8.419616   2.090185   -0.9792438
3394       8.678785   8.179669   0.3218009  -0.003566016 666.942    0.2516525  1.703172   0.7941239  2.119029   12.80513   9.16208    1.650207   -0.8802487
3394.5     8.678785   7.661746   0.3250636  0.001871845 606.2535   0.2483898  1.703172   0.6501806  2.113645   12.80513   9.409568   1.430218   -1.177234 
3395       8.678785   5.590055   0.3266949  0.02090436 596.7653   0.2500211  1.703172   0.6022007  2.110953   12.80513   8.667104   1.430218   -1.177234 
3395.5     8.713298   5.590055   0.3218009  0.02090436 568.8946   0.2532838  1.703172   0.6981623  2.119029   12.28721   7.924641   2.090185   -1.474219 
3396       8.74781    6.6259     0.3185382  0.02090436 533.8376   0.2581779  1.580956   0.8900855  2.124412   11.76928   7.429665   2.090185   -1.276229 
3396.5     8.782322   7.661746   0.3120127  0.01818543 533.8376   0.2581779  1.580956   0.8900855  2.135179   10.73344   6.93469    2.090185   -0.9792438
3397       8.816834   8.697592   0.3054873  0.01002864 533.8376   0.2581779  1.642064   0.8421047  2.145946   11.25136   6.563457   2.310175   -0.8802487
3397.5     8.851346   8.697592   0.3054873  0.007309705 533.8376   0.2532838  1.76428    0.7941239  2.145946   12.80513   6.192226   2.310175   -1.177234 
3398       8.851346   7.143823   0.3136441  0.01818543 533.8376   0.2516525  1.76428    0.7941239  2.132487   13.32305   6.93469    1.650207   -1.078239 
3398.5     8.851346   6.6259     0.3364831  0.02090436 533.8376   0.2532838  1.886496   0.7941239  2.094803   11.25136   7.182178   1.650207   -0.6822584
3399       8.851346   6.6259     0.3576908  0.0154665  533.8376   0.2581779  1.886496   0.6981623  2.05981    11.25136   7.182178   1.650207   -0.7812535
3399.5     8.782322   6.6259     0.3674789  0.01002864 533.8376   0.2663347  1.886496   0.554219   2.04366    11.25136   7.182178   1.210229   -0.6822584
3400       8.699731   6.6259     0.3511653  0          533.8376   0.2761228  1.886496   -9999      2.070577   11.25136   7.305921   0.9902396  -1.177234 
3400.5     8.665218   6.6259     0.3103814  0          533.8376   0.2810169  1.76428    0.9132578  2.137871   12.80513   7.429665   1.430218   -1.177234 
3401       8.630706   6.6259     0.3169068  0          533.8376   0.2810169  1.76428    1.009219   2.127104   11.76928   7.677153   1.870196   -1.375224 
3401.5     8.803267   6.6259     0.3413772  0.0154665  517.1279   0.2777542  1.825388   1.009219   2.086728   11.25136   7.677153   2.090185   -1.375224 
3402       8.872292   7.661746   0.3446399  0.05353152 400.9661   0.2679661  1.886496   1.009219   2.081344   11.25136   7.677153   1.430218   -1.078239 
3402.5     9.148389   11.28721   0.3381144  0.0698451  388.4153   0.2712288  2.069821   0.9132578  2.092111   17.46644   7.677153   2.310175   -1.276229 
3403       9.679638   20.60982   0.2712288  0.1187858  331.3142   0.30875    2.253145   0.9612386  2.202472   21.60982   6.439713   1.870196   -0.6822584
3403.5     9.886711   29.93243   0.2516525  0.1051912  47.6159    0.3169068  2.375361   1.105181   2.234773   34.5579    5.449762   2.310175   -0.7812535
3404       9.921224   34.59374   0.2108685  0.1079101  6.025857   0.354428   2.558686   1.53701    2.302067   44.39843   3.717348   3.41012    0.01070751
3404.5     9.886711   39.25505   0.2043431  0.1160669  3.860654   0.3691103  2.680902   1.776914   2.312834   66.15119   1.737445   5.610012   0.01070751
3405       9.645126   42.36258   0.2043431  0.1106291  2.473449   0.3740043  2.803118   2.0648     2.312834   67.70496   -0.2424574 6.049991   0.8026688 
3405.5     9.645126   48.57766   0.2092372  0.0698451  2.043786   0.3805298  2.925334   2.016819   2.304759   67.70496   -0.9849212 8.68986    1.000659  
3406       9.71415    50.13143   0.2108685  0.03179098 1.857811   0.3805298  3.04755    1.968838   2.302067   67.18704   -2.222361  8.469872   1.198649  
3406.5     9.886711   50.13143   0.2043431  0.05317882 1.799659   0.3805298  3.230875   2.112781   2.312834   66.15119   -2.222361  8.029893   1.495635  
3407       10.1283    48.05974   0.1978176  0.05623423 2.248377   0.3740043  3.230875   2.256724   2.323601   62.52573   -1.603641  8.029893   1.495635  
3407.5     10.19732   46.50597   0.1929236  0.05317882 2.248377   0.3593221  3.230875   2.208743   2.331676   62.52573   -0.9849212 7.589915   1.297644  
3408       10.47342   45.47012   0.1912922  0.02568017 2.248377   0.3576908  3.108658   2.160762   2.334368   63.04366   -0.9849212 7.589915   1.099654  
3408.5     10.47342   44.43428   0.2027117  0.01956936 2.248377   0.3609535  3.108658   2.112781   2.315526   64.59743   -2.469848  7.589915   0.9016637 
3409       10.47342   44.9522    0.2255507  0.02262477 2.178      0.3740043  3.108658   2.016819   2.277841   68.22289   -2.469848  7.589915   0.9016637 
3409.5     10.47342   45.98804   0.2386016  0.0440126  2.178      0.3821611  3.108658   2.208743   2.256307   70.29458   -0.9849203 6.709958   1.000659  
3410       10.43891   47.02389   0.2320762  0.05012342 2.109826   0.3854238  3.108658   2.208743   2.267074   71.84835   0.005030632 8.029893   1.000659  
3410.5     10.40439   50.13143   0.2206567  0.0409572  2.043786   0.3854238  3.108658   2.448647   2.285917   72.36627   0.5000062  8.469872   1.000659  
3411       10.40439   51.16727   0.2124999  0.03484639 1.979813   0.3837925  3.108658   2.59259    2.299375   72.36627   -0.737433  9.129839   1.495635  
3411.5     10.40439   51.16727   0.2027117  0.0440126  1.979813   0.3788984  3.108658   2.54461    2.315526   70.29458   -0.737433  8.469872   1.297644  
