~Version
 VERS              .         2.0                           : CWLS LOG ASCII STANDARD - VERSION 2.0
 WRAP              .         NO                            : ONE LINE PER DEPTH STEP
 DLM               .         SPACE                         : DELIMITING CHARACTER(SPACE TAB OR COMMA)
~Well Information
#_______________________________________________________________________________
#
#PARAMETER_NAME    .UNIT     VALUE                         : DESCRIPTION
#_______________________________________________________________________________
STRT               .ft       3360                          : First reference value
STOP               .ft       3515                          : Last reference value
STEP               .ft       0.5                           : Step increment
NULL               .         -9999                         : Missing value
COMP               .                                       : Company
WELL               .         POZO-1                        : Well name
FLD                .                                       : Field
LOC                .                                       : Location
CNTY               .                                       : County
STAT               .                                       : State
CTRY               .                                       : Country
SRVC               .                                       : Service Company
DATE               .                                       : Date
API                .                                       : API number
~Parameter Information Block
#_______________________________________________________________________________
#
#PARAMETER_NAME    .UNIT     VALUE                         : DESCRIPTION
#_______________________________________________________________________________
SET                .         REGISTROS                     : 
TLFamily_CALI      .         Caliper                       : 
TLFamily_CGR       .         Gamma Ray Minus Uranium       : 
TLFamily_DEPTH     .         Measured Depth                : 
TLFamily_DPHI      .         Total Porosity                : 
TLFamily_DRHO      .         Bulk Density Correction       : 
TLFamily_LLD       .         Deep Resistivity              : 
TLFamily_NPHI      .         Neutron Porosity              : 
TLFamily_PEF       .         Photoelectric Factor          : 
TLFamily_POTA      .         Potassium Concentration       : 
TLFamily_RHOB      .         Bulk Density                  : 
TLFamily_SGR       .         Gamma Ray                     : 
TLFamily_SP        .         Spontaneous Potential         : 
TLFamily_THORIUM   .         Thorium Concentration         : 
TLFamily_URAN      .         Uranium Concentration         : 
~Curve Information
#_______________________________________________________________________________
#
#LOGNAME           .UNIT     LOG_ID                        : DESCRIPTION
#_______________________________________________________________________________
DEPTH              .ft                                     :  
CALI               .in                                     :  
CGR                .gapi                                   :  
DPHI               .v/v                                    :  
DRHO               .g/cm3                                  :  
LLD                .ohm-m                                  :  
NPHI               .v/v                                    :  
PEF                .b/elec                                 :  
POTA               .%                                      :  
RHOB               .g/c3                                   :  
SGR                .gAPI                                   :  
SP                 .mv                                     :  
THORIUM            .ppm                                    :  
URAN               .ppm                                    :  
~Ascii
3360.0     9.217413   53.75689   0.2059744  0.004590775 2.553373   0.3674789  3.353091   1.657781   2.310142   65.11535   -1.727385  8.029893   2.980561  
3360.5     9.217413   53.23897   0.2010804  0.007309705 2.63588    0.3674789  3.597523   1.753743   2.318217   65.11535   -1.727385  8.249883   2.980561  
3361       9.217413   52.20312   0.199449   0.01002864 2.553373   0.3740043  3.597523   1.801723   2.320909   65.11535   -1.727385  8.68986    3.277547  
3361.5     9.1829     50.13143   0.1945549  0.0154665  2.553373   0.3772671  3.597523   1.801723   2.328984   66.15119   -1.727385  8.68986    3.277547  
3362       9.1829     44.9522    0.1945549  0.01818543 2.553373   0.3772671  3.597523   1.849705   2.328984   67.18704   -1.727385  9.129839   2.683576  
3362.5     9.251925   44.9522    0.1978176  0.02634222 2.553373   0.3691103  3.597523   2.041628   2.323601   65.63327   -1.727385  9.129839   2.980561  
3363       9.334517   46.50597   0.2124999  0.03178008 2.396027   0.3625848  3.597523   2.281533   2.299375   65.63327   -1.974873  9.129839   2.683576  
3363.5     9.438053   48.57766   0.2255507  0.03993687 2.396027   0.3674789  3.536415   2.425476   2.277841   65.63327   -2.964824  8.909849   2.58458   
3364       9.54159    49.09558   0.2206567  0.03993687 2.396027   0.3740043  3.536415   2.329514   2.285917   68.74081   -2.964824  8.249883   3.178552  
3364.5     9.610614   49.09558   0.2076058  0.03721794 2.396027   0.3756357  3.536415   2.13759    2.307451   69.25874   0.5000062  8.68986    2.683576  
3365       9.645126   49.09558   0.2010804  0.02090436 2.473449   0.3740043  3.536415   2.089609   2.318217   72.36627   2.479909   9.129839   2.782571  
3365.5     9.645126   49.09558   0.2043431  0.02362329 2.63588    0.3691103  3.536415   1.897686   2.312834   70.29458   1.489957   8.909849   3.277547  
3366       9.610614   45.98804   0.2043431  0.02634222 2.63588    0.3674789  3.536415   1.6098     2.312834   66.15119   -0.2424574 8.68986    2.980561  
3366.5     9.576101   44.43428   0.2076058  0.03178008 2.63588    0.3642162  3.536415   1.657781   2.307451   62.52573   -2.222361  8.68986    2.782571  
3367       9.438053   43.91636   0.2124999  0.04537473 2.721052   0.3674789  3.536415   1.657781   2.299375   63.56158   -3.707287  9.349829   2.485585  
3367.5     9.300004   43.91636   0.2206567  0.04537473 2.899742   0.3691103  3.475307   1.753743   2.285917   67.70496   -2.964824  9.349829   2.58458   
3368       9.196468   43.39843   0.2304448  0.0426558  2.899742   0.3821611  3.414199   1.753743   2.269766   67.70496   -2.222361  8.68986    2.485585  
3368.5     9.058419   42.36258   0.2369702  0.02906115 3.739811   0.3837925  3.414199   1.753743   2.258999   66.15119   -1.727385  7.589915   2.683576  
3369       8.954883   40.80882   0.2532838  0.02090436 5.139992   0.3821611  3.414199   1.753743   2.232082   65.11535   -1.727385  6.489969   2.1886    
3369.5     8.954883   40.80882   0.2483898  0.02634222 15.15465   0.3788984  3.353091   1.993648   2.240157   57.86443   -0.9849212 6.26998    2.287595  
3370       8.920371   38.2192    0.2369702  0.04537473 25.20731   0.3674789  3.291983   1.897686   2.258999   55.79274   0.2525182  4.950045   2.089605  
3370.5     8.920371   33.03997   0.240233   0.04537473 46.12545   0.3576908  3.108658   1.657781   2.253616   43.88051   1.489957   3.41012    1.198649  
3371       8.851346   28.89659   0.2483898  0.03993687 59.48822   0.3511653  2.925334   1.6098     2.240157   35.59374   2.727396   3.41012    1.000659  
3371.5     8.782322   27.34282   0.2728601  0.03178008 67.55788   0.3413772  2.803118   1.561819   2.199781   32.4862    3.222372   3.41012    0.9016637 
3372       8.782322   20.60982   0.3071187  0.02634222 69.74088   0.3332204  2.680902   1.513838   2.143254   26.78905   4.459811   4.510067   0.7036735 
3372.5     8.713298   16.46644   0.3185382  0.01818543 74.32071   0.3283263  2.558686   1.369895   2.124412   23.16359   5.449762   6.489969   0.2086978 
3373       8.713298   15.94851   0.3071187  0.01274757 79.20132   0.3348517  2.558686   1.273933   2.143254   25.7532    5.69725    5.830001   -0.08828758
3373.5     8.74781    15.94851   0.2810169  0.02362329 79.20132   0.3788984  2.558686   1.225953   2.186322   33.52205   5.202274   5.170034   0.3076929 
3374       8.816834   15.94851   0.222288   0.02362329 89.94511   0.3772671  2.558686   1.225953   2.283225   37.14751   4.459811   4.070088   0.4066881 
3374.5     8.851346   16.98436   0.240233   0.02634222 102.1463   0.3430085  2.558686   1.273933   2.253616   36.11166   3.717348   3.41012    0.3076929 
3375       8.851346   16.98436   0.2679661  0.02090436 123.6205   0.3299577  2.558686   1.321914   2.207856   25.23528   2.479909   3.850099   0.2086978 
3375.5     8.851346   16.46644   0.263072   0.0154665  144.9261   0.3218009  2.558686   1.369895   2.215931   20.57397   1.984933   3.850099   -0.08828758
3376       8.816834   15.43059   0.2956991  0.01002864 186.9119   0.3201695  2.436469   1.273933   2.162097   19.53813   1.737445   3.850099   -0.385273 
3376.5     8.782322   14.91267   0.2948835  0.007309705 226.2062   0.3250636  2.436469   1.177971   2.163442   19.53813   1.984933   3.190131   -0.2862779
3377       8.74781    13.87682   0.2940678  0.01002864 265.1924   0.3250636  2.130929   1.177971   2.164788   19.53813   3.717348   2.750153   -0.2862779
3377.5     8.713298   13.87682   0.2908051  0.02090436 470.0718   0.2956991  1.947604   1.177971   2.170172   18.50228   4.707299   2.750153   -0.2862779
3378       8.678785   11.28721   0.2940678  0.01818543 587.2769   0.2924364  1.947604   1.177971   2.164788   16.94851   5.69725    2.750153   -0.1872828
3378.5     8.678785   6.6259     0.3152754  0.0154665  688.4929   0.2891737  1.947604   0.8421047  2.129796   16.43059   5.944738   2.530164   -0.4842681
3379       8.644274   7.143823   0.3299577  0.01002864 781.8881   0.2761228  1.947604   0.986048   2.10557    14.87682   4.954786   2.530164   0.1097027 
3379.5     8.644274   7.143823   0.3348517  0.01274757 781.8881   0.2663347  1.947604   0.9380672  2.097495   17.46644   3.717348   2.310175   -0.08828758
3380       8.644274   7.661746   0.3381144  0.01002864 781.8881   0.2761228  2.008713   0.9380672  2.092111   19.0202    3.717348   2.090185   -0.08828758
3380.5     8.678785   8.697592   0.3381144  0.007309705 757.4139   0.2614406  2.008713   0.8900855  2.092111   17.46644   3.964836   2.310175   -0.1872828
3381       8.678785   8.697592   0.3348517  0          757.4139   0.2614406  2.008713   0.986048   2.097495   17.46644   4.459811   2.310175   -0.4842681
3381.5     8.678785   6.6259     0.3185382  0          757.4139   0.2663347  1.855942   0.8421047  2.124412   15.91267   4.459811   2.310175   -0.385273 
3382       8.678785   6.6259     0.3038559  0.01274757 733.7057   0.2483898  1.825388   0.8421047  2.148638   12.28721   4.707299   1.650207   -0.5832633
3382.5     8.644274   6.6259     0.3054873  0.0154665  757.4139   0.2434957  1.825388   0.8421047  2.145946   11.25136   5.449762   0.9902396  -0.9792438
3383       8.644274   6.6259     0.30875    0.02090436 757.4139   0.2434957  1.825388   0.8900855  2.140563   11.76928   6.439713   1.210229   -0.7812535
3383.5     8.644274   8.179669   0.30875    0.02090436 757.4139   0.2483898  1.825388   0.7461431  2.140563   14.87682   6.439713   1.650207   -0.6822584
3384       8.713298   9.215515   0.3054873  0.0154665  781.8881   0.2549152  1.825388   0.554219   2.145946   13.84098   6.93469    1.650207   -0.7812535
3384.5     8.713298   9.215515   0.3005932  0.01002864 733.7057   0.2581779  1.886496   0.6022007  2.154021   13.84098   7.182178   2.090185   -0.4842681
3385       8.713298   9.215515   0.3005932  0.01002864 733.7057   0.2581779  1.886496   0.7941239  2.154021   13.84098   7.677153   2.090185   -0.7812535
3385.5     8.713298   9.215515   0.3022246  0.01818543 733.7057   0.2532838  1.886496   0.9380672  2.15133    13.84098   7.677153   1.870196   -1.078239 
